City_ID,City,Country,Max Temp,Weather Description,Lat,Lng,Hotel Name
1,Georgetown,MY,80.55,few clouds,5.4112,100.3354,Cititel Penang
4,Cabedelo,BR,86.67,overcast clouds,-6.9811,-34.8339,Pousada Camboinha
5,Korla,CN,72.7,clear sky,41.7597,86.1469,Gulisitan Hotel
6,Kavaratti,IN,81.99,few clouds,10.5669,72.642,Green leaf
19,Acari,PE,73.99,overcast clouds,-15.4311,-74.6158,HOSPEDAJE XIMENA
21,Saint George,US,79.43,clear sky,37.1041,-113.5841,Best Western Plus Abbey Inn
27,Puerto Ayora,EC,76.96,overcast clouds,-0.7393,-90.3518,Finch Bay Galapagos Hotel
29,Cairns,AU,73.35,overcast clouds,-16.9167,145.7667,Mantra Trilogy Cairns
31,Rikitea,PF,70.29,few clouds,-23.1203,-134.9692,People ThankYou
36,Acapulco,MX,84.67,overcast clouds,16.8634,-99.8901,HS Hotsson Smart Acapulco
37,Faya,SA,73.92,scattered clouds,18.3851,42.4509,املاك خالد الشعشوع
39,Vaini,TO,73.56,broken clouds,-21.2,-175.2,Keleti Beach Resort
42,Lander,US,73.11,clear sky,42.833,-108.7307,"Holiday Inn Express & Suites Lander, an IHG Hotel"
49,Terrasini,IT,74.77,clear sky,38.146,13.0844,Florio Park Hotel
54,Karratha,AU,76.89,light rain,-20.7377,116.8463,ibis Styles Karratha
56,Sorong,ID,79.09,overcast clouds,-0.8833,131.25,Waigo Splash Hotel
58,Gat,IL,81.39,clear sky,31.61,34.7642,OlusHome
60,Laguna,US,88.63,clear sky,38.421,-121.4238,"Holiday Inn Express & Suites Elk Grove Central - Hwy 99, an IHG Hotel"
61,Kapaa,US,78.1,light rain,22.0752,-159.319,Sheraton Kauai Coconut Beach Resort
66,Mahebourg,MU,71.89,broken clouds,-20.4081,57.7,Shandrani Beachcomber Resort & Spa
70,Kloulklubed,PW,83.61,overcast clouds,7.0419,134.2556,Storyboard Beach Resort
74,Dingle,PH,75.56,overcast clouds,10.9995,122.6711,SEGAYA PROPERTY
76,Moindou,NC,72.73,clear sky,-21.6924,165.677,Equi-lodge de Moindou
78,Pak Phanang,TH,79.12,broken clouds,8.3511,100.202,Green Park Inn Hotel
79,Merritt Island,US,88.21,scattered clouds,28.5392,-80.672,
81,Tupa,BR,79.0,clear sky,-21.9347,-50.5136,Grande Hotel Tamoios
82,Arraial Do Cabo,BR,73.36,clear sky,-22.9661,-42.0278,Pousada Porto Praia
85,Sinnamary,GF,85.73,scattered clouds,5.3833,-52.95,ALETHEIA Appartement Sinnamary
86,Harper,LR,78.37,broken clouds,4.375,-7.7169,Screensaver
88,Kamakwie,SL,77.9,light rain,9.5,-12.2333,White House Hotel
89,Cam Ranh,VN,76.96,moderate rain,11.9214,109.1591,OYO 598 Peony Hotel
92,San Antero,CO,84.47,broken clouds,9.3741,-75.7589,Villamarina Inn chale
94,Caravelas,BR,70.95,overcast clouds,-17.7125,-39.2481,Pousada dos Navegantes
95,Torbay,CA,70.57,few clouds,47.6666,-52.7314,Gallows Cove
96,Boulsa,BF,86.74,overcast clouds,12.6675,-0.5758,Auberge Relwende
97,Victoria,HK,83.32,broken clouds,22.2855,114.1577,Mini Central
99,Bambous Virieux,MU,71.85,light rain,-20.3428,57.7575,Casa Tia Villa
103,Buenaventura,CO,83.77,overcast clouds,3.8801,-77.0312,Hotel Victoria
109,Ponta Do Sol,PT,76.71,overcast clouds,32.6667,-17.1,Hotel do Campo
112,Souillac,MU,71.98,light rain,-20.5167,57.5167,Shanti Maurice Resort & Spa
113,Quang Ngai,VN,74.1,overcast clouds,15.1167,108.8,Central Hotel
116,Faanui,PF,77.49,light rain,-16.4833,-151.75,Bora-Bora Pearl Beach Resort & Spa
117,Hithadhoo,MV,81.61,broken clouds,-0.6,73.0833,Scoop Guest House
119,Fortuna,US,77.65,clear sky,40.5982,-124.1573,Super 8 by Wyndham Fortuna
124,Half Moon Bay,US,84.54,clear sky,37.4636,-122.4286,"The Ritz-Carlton, Half Moon Bay"
126,Babai,IN,72.68,overcast clouds,22.7,77.9333,Sumit Kahar
127,Zhanaozen,KZ,76.66,clear sky,43.3,52.8,K.korabay 28A
129,Hilo,US,80.28,overcast clouds,19.7297,-155.09,Hilo Hawaiian Hotel
130,Soyo,AO,74.19,overcast clouds,-6.1349,12.3689,Hospedaria ndozi'ame
131,Isla Vista,US,88.3,clear sky,34.4133,-119.861,Best Western Plus South Coast Inn
132,Tura,IN,73.36,overcast clouds,25.5198,90.2201,Hotel RIKMAN Continental
134,Atuona,PF,76.6,scattered clouds,-9.8,-139.0333,Villa Enata
136,Lae,PG,73.96,broken clouds,-6.7221,146.9847,Phils Hotel
140,Varkkallai,IN,82.18,overcast clouds,8.7341,76.7067,Hindustan Beach Retreat
146,Gazli,UZ,80.04,clear sky,40.1333,63.45,UTG Uy-joy kommunal xoʻjaligi
147,Mar Del Plata,AR,71.62,clear sky,-38.0023,-57.5575,Gran Hotel Mar del Plata
148,North Vernon,US,73.71,broken clouds,39.0062,-85.6236,Quality Inn North Vernon near Hwy 50
149,Avarua,CK,73.45,overcast clouds,-21.2078,-159.775,Paradise Inn
154,Tema,GH,79.36,overcast clouds,5.667,-0.0166,Beulah Royale Hotel Tema
157,Samarai,PG,80.06,overcast clouds,-10.6167,150.6667,Nuli Sapi
160,Ixtapa,MX,85.23,overcast clouds,20.7,-105.2,hotel la terminal
162,Namatanai,PG,79.29,light rain,-3.6667,152.4333,Seagulls Inn Namatani
165,Koungou,YT,76.71,clear sky,-12.7336,45.2042,Villa Netibor
170,Salalah,OM,79.02,broken clouds,17.0151,54.0924,"HAMDAN PLAZA HOTEL SALALAH, an HTG Hotel"
172,Poum,NC,74.84,clear sky,-20.2333,164.0167,
174,Mattru,SL,74.1,moderate rain,7.6244,-11.8332,"Mondkor Town, Bagbo Chiefdom, Bo District"
179,Eyl,SO,77.68,broken clouds,7.9803,49.8164,Amiin Hotel
181,Sao Filipe,CV,79.93,few clouds,14.8961,-24.4956,Hotel Xaguate
182,Conde,BR,85.46,scattered clouds,-7.2597,-34.9075,Pousada Beija Flor
184,Gamba,GA,75.85,broken clouds,-2.65,10.0,
185,Vila Do Maio,CV,79.59,clear sky,15.1333,-23.2167,Hotel Marilu
186,Richards Bay,ZA,73.22,clear sky,-28.783,32.0377,BON Hotel Waterfront Richards Bay
188,Srandakan,ID,76.96,overcast clouds,-7.9386,110.2506,Puri Brata
194,San Cristobal,VE,82.58,overcast clouds,7.7669,-72.225,Pirineos
196,Hami,CN,70.79,clear sky,42.8,93.45,Laoyutang Resort
199,Honiara,SB,77.4,few clouds,-9.4333,159.95,Heritage Park Hotel
200,Tual,ID,81.64,broken clouds,-5.6667,132.75,Grand Vilia Hotel
201,Butaritari,KI,81.52,broken clouds,3.0707,172.7902,Isles Sunset Lodge
202,Champerico,GT,88.34,broken clouds,14.3,-91.9167,"Hotel y restaurante ""El Diamante"""
203,Neyshabur,IR,75.27,clear sky,36.2133,58.7958,Amiran Hotel & Commercial Complex
205,Katsuura,JP,71.31,overcast clouds,35.1333,140.3,Katsuura Hotel Mikazuki
211,Bubaque,GW,80.83,light rain,11.2833,-15.8333,"Casa Dora, Bubaque"
213,Sinjai,ID,73.31,clear sky,-5.1241,120.253,Wisma Sandika
214,Asgabat,TM,82.26,clear sky,37.95,58.3833,Oguzkent Hotel
215,Lompoc,US,71.74,scattered clouds,34.6391,-120.4579,"Holiday Inn Express Lompoc, an IHG Hotel"
217,Aripuana,BR,88.2,broken clouds,-9.1667,-60.6333,
219,Vao,NC,73.17,clear sky,-22.6667,167.4833,Hotel Kou-Bugny
221,Hellin,ES,79.34,overcast clouds,38.5106,-1.701,Hotel Restaurante Reina Victoria
223,Mindelo,CV,85.55,light rain,16.8901,-24.9804,Hotel Gaudi
224,Kieta,PG,78.64,overcast clouds,-6.2167,155.6333,Uruna Bay Retreat
226,Vila Velha,BR,76.95,broken clouds,-20.3297,-40.2925,Hotel Vitória Palace
227,Olinda,BR,82.13,scattered clouds,-8.0089,-34.8553,Flat Quatro Rodas Olinda
230,Ewo,CG,78.19,overcast clouds,-0.8725,14.8206,Residence Elonda Ewo
232,Sur,OM,86.29,scattered clouds,22.5667,59.5289,Sur Plaza Hotel
233,Meulaboh,ID,75.61,light rain,4.1363,96.1285,Kost Pria
234,Bathsheba,BB,88.41,scattered clouds,13.2167,-59.5167,Atlantis Hotel
237,Badou,TG,75.4,light rain,7.5833,0.6,Hôtel Abuta
238,Bandarbeyla,SO,76.62,broken clouds,9.4942,50.8122,JABIR HOTEL
239,Tabou,CI,77.99,broken clouds,4.423,-7.3528,hotêl doufoulougou
240,Hukuntsi,BW,79.52,clear sky,-24.0,21.75,Its me guest house
241,Pulivendla,IN,81.81,broken clouds,14.4167,78.2333,Kothabalaji
242,Muli,MV,83.59,overcast clouds,2.9167,73.5667,Medhufushi Island Resort
246,Portland,US,70.05,clear sky,45.5234,-122.6762,Embassy Suites by Hilton Portland Downtown
249,Male,MV,84.15,broken clouds,4.1748,73.5089,Hotel Octave Maldives
253,Labuhan,ID,78.8,overcast clouds,-6.8844,112.2051,DoubleFAG
258,Ribeira Grande,PT,72.0,light intensity shower rain,38.5167,-28.7,Quinta da Meia Eira
262,Oranjestad,AW,89.55,few clouds,12.524,-70.027,Divi Village Golf & Beach Resort
263,El Copey,CO,89.35,overcast clouds,10.1503,-73.9614,San José
264,Avera,US,79.56,clear sky,33.194,-82.5271,
265,Lorengau,PG,81.75,broken clouds,-2.0226,147.2712,Lorengau Harbourside Hotel
266,Sandwich,US,70.68,few clouds,41.6459,-88.6217,The Montcler Hotel
268,Gairatganj,IN,71.38,overcast clouds,23.4202,78.2385,new garib namz road lines
270,Hamilton,US,71.26,overcast clouds,39.1834,-84.5333,Six Acres Bed & Breakfast
271,Lagoa,PT,72.09,light rain,39.05,-27.9833,Casa Das Faias
273,Jalu,LY,86.81,broken clouds,29.0331,21.5482,صاحبة الفخامة
274,Sarangani,PH,83.86,overcast clouds,5.4033,125.4636,JVL Inn and Cafeteria
276,Gambela,ET,72.97,broken clouds,8.25,34.5833,Solomon Debebe Hotel
280,Tautira,PF,75.76,light rain,-17.7333,-149.15,Pension Oaoa
281,Banna,PH,76.19,light rain,17.98,120.655,EDWIN'S PLACE
282,Payson,US,70.41,clear sky,40.0444,-111.7321,Quality Inn Payson I-15
283,Roebourne,AU,77.79,light rain,-20.7833,117.1333,Latitude20 Roebourne Village
285,Gushikawa,JP,79.83,scattered clouds,26.3544,127.8686,Kirari Guest House
286,Siyabuswa,ZA,78.39,clear sky,-25.1132,29.0445,Confy Inn Guest Rooms
288,Nabire,ID,74.37,overcast clouds,-3.3667,135.4833,Hotel Nusantara I
291,Sibu,MY,73.71,scattered clouds,2.3,111.8167,RH HOTEL (4 Star)
292,Cockburn Town,TC,83.34,broken clouds,21.4612,-71.1419,Osprey Beach Hotel
295,Miri,MY,75.34,few clouds,4.4148,114.0089,"Mega Hotel, Miri"
297,Daru,PG,77.92,overcast clouds,-9.0763,143.2092,Daru Lodge
299,Dubti,ET,86.23,moderate rain,11.7361,41.0853,degu Shiferaw
301,Kpandu,GH,77.05,light rain,6.9954,0.2931,Emo House
302,Dicabisagan,PH,77.29,overcast clouds,17.0818,122.4157,Nancy Montanes Bernardo
303,Villa Maria,AR,77.83,overcast clouds,-32.4075,-63.2402,Hotel Milenium
306,Chinchani,IN,78.85,few clouds,19.8667,72.7,Vasantshrushti Farm
309,Sadat,IN,80.13,overcast clouds,25.6833,83.2833,Tuntun Niwas
310,Mecca,SA,89.04,scattered clouds,21.4267,39.8261,"Makkah Clock Royal Tower, A Fairmont Hotel"
312,Axim,GH,77.36,scattered clouds,4.8699,-2.2405,Axim Beach Resort And Spa
314,Buala,SB,79.34,light rain,-8.145,159.5921,Maringe Lagoon Lodge
315,San Vicente,AR,73.67,clear sky,-26.6167,-54.1333,Complejo Turístico Farelluk
317,Portalegre,PT,70.23,scattered clouds,39.2938,-7.4312,Rossio Hotel
318,Odweyne,SO,78.53,overcast clouds,9.4092,45.064,Eng Hiirey House
319,Ndungu,TZ,72.46,overcast clouds,-4.3667,38.05,Nick Resort
320,Keti Bandar,PK,81.37,broken clouds,24.1447,67.4497,Haji laloo memon house
321,Bud,US,74.48,broken clouds,39.447,-86.1758,Ted McQuinn Trust
323,Grand Gaube,MU,72.0,light rain,-20.0064,57.6608,Veranda Paul et Virginie Hotel & Spa
324,Port-Gentil,GA,76.96,scattered clouds,-0.7193,8.7815,Fengshui Residence
325,Seoni,IN,70.11,overcast clouds,22.0833,79.5333,STARiHOTELS Nehru Road Seoni
328,Pinheiro,BR,88.56,overcast clouds,-2.5214,-45.0825,Solares Hotel
330,Palembang,ID,78.89,scattered clouds,-2.9167,104.7458,ASTON Palembang Hotel & Conference Center
331,Hambantota,LK,78.98,broken clouds,6.1241,81.1185,Bungalow 63
332,Qandala,SO,87.66,broken clouds,11.472,49.8728,
337,Cap Malheureux,MU,70.47,light rain,-19.9842,57.6142,Pereybere Hotel & Spa
338,Rong Kwang,TH,72.72,broken clouds,18.339,100.3174,Rong Kwang Hotel
342,Teknaf,BD,78.94,overcast clouds,20.8624,92.3058,Forestry Guesthouse
343,Marsabit,KE,74.01,few clouds,2.3284,37.9899,Chicho Hotel
347,Luganville,VU,78.39,scattered clouds,-15.5333,167.1667,The Espiritu Hotel
348,Kahului,US,81.84,broken clouds,20.8947,-156.47,Maui Seaside Hotel
349,Tandalti,SD,88.88,scattered clouds,13.0167,31.8667,منزل : الهادي محمد مساعد
355,Hasaki,JP,72.28,overcast clouds,35.7333,140.8333,Inubosaki Kanko Hotel
356,Chimore,BO,89.13,overcast clouds,-16.9833,-65.1333,Bichito
359,Manta,EC,76.78,broken clouds,-0.95,-80.7333,Balandra Hotel
367,Makokou,GA,71.96,overcast clouds,0.5738,12.8642,Hôtel
369,Padang,ID,77.43,overcast clouds,-0.9492,100.3543,Mercure Padang
371,Itamaraca,BR,82.45,broken clouds,-7.7478,-34.8256,Special K's Bed & Breakfast
372,Carupano,VE,86.16,scattered clouds,10.6678,-63.2585,Hotel La dorada
373,Auki,SB,76.57,light rain,-8.7676,160.7034,Auki Motel
374,Bengkulu,ID,74.12,moderate rain,-3.8004,102.2655,Grage Hotel Bengkulu
376,Isangel,VU,75.11,clear sky,-19.55,169.2667,Tanna Lodge
380,Fez,MA,80.85,scattered clouds,34.0372,-4.9998,Hotel Mounia Fès
383,Sola,VU,80.29,broken clouds,-13.8833,167.55,Leumerus Bungalows
384,North Myrtle Beach,US,80.11,clear sky,33.816,-78.68,Avista Resort
385,Ajdabiya,LY,78.96,scattered clouds,30.7554,20.2263,منزلة الحاج سالم خليفة العيساويه الزواوي
388,Boende,CD,71.04,overcast clouds,-0.2167,20.8667,
390,Tado,CO,87.51,overcast clouds,5.266,-76.5649,Onney Quinto Renteria
391,Makakilo City,US,79.61,few clouds,21.3469,-158.0858,Marriott's Ko Olina Beach Club
393,Emilio Carranza,MX,83.82,few clouds,19.9711,-96.6114,Hotel Carranza Inn
394,Nizwa,OM,89.91,scattered clouds,22.9333,57.5333,Orient Apartments
396,Mlonggo,ID,78.46,overcast clouds,-6.5333,110.7,Asia Metal Art
399,Santa Cruz,BO,87.26,scattered clouds,-17.8,-63.1667,Aviador Hotel Boutique
400,San Juan Del Cesar,CO,89.11,scattered clouds,10.7711,-73.0031,Hotel Saraje
402,Kutum,SD,85.73,few clouds,14.2,24.6667,Dibbo areaمنطقة دبو
403,Mogadishu,SO,77.52,clear sky,2.0371,45.3438,Hotel Juba
405,Torit,SS,78.1,scattered clouds,4.4133,32.5678,Diplomat Guest House
406,Koumac,NC,71.96,clear sky,-20.5667,164.2833,Le Monitel
409,Tandil,AR,71.69,broken clouds,-37.3217,-59.1332,Hostal de la Sierra Tandil
410,Anamoros,SV,86.11,broken clouds,13.7406,-87.8736,Hotel y Restaurante Romega Inn
411,Werda,BW,80.04,clear sky,-25.2667,23.2833,
412,Akdepe,TM,79.38,clear sky,42.0551,59.3788,
414,Wanning,CN,77.74,scattered clouds,18.8003,110.3967,Paradise Hotel
416,Iralaya,HN,84.6,overcast clouds,15.0,-83.2333,Iglesia morava renovada
418,Benguela,AO,70.72,broken clouds,-12.5763,13.4055,Hotel Praia Morena
419,Kavieng,PG,80.87,light rain,-2.5744,150.7967,Nusa Island Retreat
420,Aquiraz,BR,84.29,broken clouds,-3.9014,-38.3911,Pousada Rua Camurupim
421,Vila Franca Do Campo,PT,73.81,overcast clouds,37.7167,-25.4333,Pestana Bahia Praia
422,San Ramon,US,85.14,clear sky,37.7799,-121.978,San Ramon Marriott
424,Mayumba,GA,76.01,overcast clouds,-3.432,10.6554,LIKWALE LODGE
425,Noumea,NC,75.99,clear sky,-22.2763,166.4572,Hôtel Le Lagon
431,Moron,AR,73.8,scattered clouds,-34.6534,-58.6198,Hotel Morón
432,Belmonte,BR,75.69,light rain,-15.8631,-38.8828,Pousada Monte Carmelo O Pão
433,Beirut,LB,76.37,clear sky,33.8889,35.4944,"Crowne Plaza Beirut, an IHG Hotel"
435,Riyadh,SA,87.93,clear sky,24.6877,46.7219,"InterContinental Riyadh, an IHG Hotel"
436,Balud,PH,79.36,overcast clouds,10.1476,123.6953,Pulchra Resort
437,Sakakah,SA,87.13,clear sky,29.9697,40.2064,Fakhamat Al Orjoana Apartment
438,Guider,CM,78.96,light rain,9.9342,13.9486,"AUBERGE LA GRACE , GÉRANT : OUDAWAREME BALTHAZAR"
439,Coruripe,BR,80.02,clear sky,-10.1256,-36.1756,Pousada e Hotel Litoral Sul
441,Formosa,AR,74.75,scattered clouds,-26.1775,-58.1781,Asterión Departamentos
444,Lazaro Cardenas,MX,84.2,scattered clouds,17.9583,-102.2,HOTEL QUINTA ANTIGUA
446,Buchanan,LR,76.75,moderate rain,5.8808,-10.0467,Kamaneahn Hotel Inc
447,Ellenabad,IN,73.53,overcast clouds,29.45,74.65,Lovelysweets
450,Praia Da Vitoria,PT,74.75,light rain,38.7333,-27.0667,Hotel Branco I
451,Pedernales,DO,85.75,overcast clouds,18.0384,-71.744,Hotel Costa Marina
452,Tezu,IN,72.97,light rain,27.9167,96.1667,Circuit House
455,Conversion,PH,72.97,light rain,15.8984,121.1277,
458,Camacha,PT,71.02,few clouds,33.0833,-16.3333,Hotel Porto Santo & Spa
460,Marsh Harbour,BS,83.16,few clouds,26.5412,-77.0636,Abaco Beach Resort
463,Samana,DO,86.52,overcast clouds,19.2056,-69.3369,The Bannister - Hotel & Yacht Club
464,Nouadhibou,MR,77.13,overcast clouds,20.931,-17.0347,El Medina
465,Zambezi,ZM,78.19,scattered clouds,-13.5432,23.1047,Royal Kutachika Lodge
473,Normal,US,74.17,clear sky,40.5142,-88.9906,"Holiday Inn Express & Suites Bloomington - Normal, an IHG Hotel"
475,Kelo,TD,76.21,overcast clouds,9.3086,15.8066,Plantation de Kelo
478,Carutapera,BR,85.82,broken clouds,-1.195,-46.02,Lidera
479,Kulhudhuffushi,MV,82.58,broken clouds,6.6221,73.07,Haajy Guest House 1
486,Lisala,CD,71.13,broken clouds,2.15,21.5167,Guest house Eden
488,Aden,YE,89.46,overcast clouds,12.7794,45.0367,Sama Emirate Hotel
490,Manokwari,ID,78.46,overcast clouds,-0.8667,134.0833,Swiss Belhotel Manokwari
491,Methoni,GR,71.22,clear sky,36.8197,21.7049,Methoni Beach Hotel
493,Narsipatnam,IN,77.56,broken clouds,17.6667,82.6167,Lodge Vooda Residency AC
494,Am Timan,TD,77.34,broken clouds,11.0297,20.2827,Palais du chef Canton Salamt
495,Dossor,KZ,73.62,overcast clouds,47.5272,52.9811,"Gostinitsa Orpk ""Nauryz"""
498,Zhuhai,CN,82.85,few clouds,22.2769,113.5678,珠海粤财假日酒店
505,Uyovu,TZ,73.76,broken clouds,-3.2833,31.5258,
506,Chinsali,ZM,71.69,scattered clouds,-10.5414,32.0816,Chisakatu Guest House
507,Tateyama,JP,73.09,overcast clouds,34.9833,139.8667,Tateyama Seaside Hotel
509,Balikpapan,ID,74.39,few clouds,-1.2675,116.8289,Swiss-Belhotel Balikpapan
511,Praia,CV,79.34,scattered clouds,14.9215,-23.5087,LT Aparthotel
512,Tadine,NC,72.28,scattered clouds,-21.55,167.8833,
513,Koubia,GN,74.08,moderate rain,11.5833,-11.9,Hôtel Mbalou Koubia
515,Mansoa,GW,76.59,moderate rain,12.0733,-15.3189,Hotel Uaque
517,Chandla,IN,77.49,overcast clouds,25.0833,80.2,Rest House
518,Madison,US,84.33,clear sky,34.7334,-86.5667,Embassy Suites by Hilton Huntsville
520,Sapouy,BF,80.96,overcast clouds,11.5544,-1.7736,Auberge St Louis
522,Vanimo,PG,74.91,scattered clouds,-2.6741,141.3028,Vahmoneh Lodge Vanimo
525,Pyay,MM,75.88,overcast clouds,18.8167,95.2167,Shwe Pyi Thar
527,Thinadhoo,MV,81.32,very heavy rain,0.5333,72.9333,
528,Lingao,CN,77.18,few clouds,19.9103,109.6859,Lingao Ditai Inn
529,Bull Savanna,JM,83.1,overcast clouds,17.8868,-77.5902,Big Red's
532,Kaohsiung,TW,81.03,few clouds,22.6163,120.3133,御宿商旅-中山館
535,Porto Belo,BR,73.8,clear sky,-27.1578,-48.5531,Costa Verde Beach Hotel
536,Tazmalt,DZ,81.61,scattered clouds,36.3868,4.3989,Hôtel Numédia
537,Kabompo,ZM,75.16,scattered clouds,-13.5927,24.2008,Big Tree
538,Omboue,GA,76.48,overcast clouds,-1.5746,9.2618,Hotel Olako
539,Kilimatinde,TZ,75.33,broken clouds,-5.85,34.95,
540,Jieshi,CN,76.08,light rain,22.8134,115.8257,Yuehai Hotel
542,Algiers,DZ,82.22,scattered clouds,36.7525,3.042,Sofitel Algiers Hamma Garden
543,Kota,IN,78.31,overcast clouds,25.1833,75.8333,Hotel Surya Royal
544,Ambilobe,MG,73.81,scattered clouds,-13.2,49.05,Hôtel & Restaurant DIANA Ambilobe
547,Nieves,PH,81.91,overcast clouds,15.3274,120.9485,Bill's Inn
549,Mercedes,AR,74.86,scattered clouds,-34.6515,-59.4307,Posada del Inti Centro
552,Najran,SA,79.21,clear sky,17.4924,44.1277,محمد هادي ال فطيح
557,Ambon,ID,80.74,scattered clouds,-3.6954,128.1814,Swiss-Belhotel Ambon
558,Los Llanos De Aridane,ES,70.12,overcast clouds,28.6585,-17.9182,Valle Aridane
561,Port Blair,IN,80.83,broken clouds,11.6667,92.75,"Welcomhotel By ITC Hotels, Bay Island, Port Blair"
562,Rus,ES,80.46,overcast clouds,38.0476,-3.4625,Balneario San Andrés
567,Coahuayana,MX,87.94,few clouds,18.7333,-103.6833,El rranchito michuacan de ocampos
570,Culpeper,US,70.56,scattered clouds,38.5004,-77.9664,Suites at 249
574,Quelimane,MZ,73.89,scattered clouds,-17.8786,36.8883,Hotel Flamingo
575,Agua Verde,MX,87.89,broken clouds,22.9,-106.05,
577,Serenje,ZM,72.52,scattered clouds,-13.2325,30.2352,The Kabaso's
580,Romitan,UZ,73.35,clear sky,39.9343,64.3814,Hotel Temur
582,Lamu,KE,77.22,overcast clouds,-2.2717,40.902,Lamu House
584,Ternate,ID,81.39,broken clouds,0.8,127.4,Sahid Bela Ternate Hotel
587,Tigre,AR,75.06,clear sky,-34.426,-58.5796,Puerto Delta Apartamentos
590,Naze,JP,76.96,broken clouds,28.3667,129.4833,Shishime Hotel
595,Micheweni,TZ,75.99,broken clouds,-4.9667,39.8333,
600,Sao Joao Da Barra,BR,77.09,broken clouds,-21.6403,-41.0511,Pousada Porto De Canoas
601,Gigmoto,PH,78.33,heavy intensity rain,13.7796,124.39,Cj's Travellers Inn
606,Qingyuan,CN,82.38,broken clouds,23.7,113.0333,Guojin Commercial Hotel
609,Patawag,PH,78.21,light rain,8.1064,122.6208,Banigan Beach
610,Owensboro,US,86.16,clear sky,37.7742,-87.1133,Courtyard by Marriott Owensboro
611,Vung Tau,VN,79.95,overcast clouds,10.346,107.0843,Seaside Resort
612,Ekangala,ZA,75.29,clear sky,-25.6962,28.7492,Josiah's
613,Santa Rosa,PH,81.1,moderate rain,14.3122,121.1114,Erlyn’s Sta Rosa City Home
614,Tshela,CD,77.18,overcast clouds,-4.9833,12.9333,Hotel Mirador
618,Merauke,ID,76.84,broken clouds,-8.4667,140.3333,
619,Veraval,IN,81.27,scattered clouds,20.9,70.3667,Lords Inn Somnath
621,Morehead,US,81.79,clear sky,37.2711,-87.1764,CCI Express Inn
622,Havelock,US,76.98,clear sky,34.8791,-76.9013,Sherwood Motel
623,San Lorenzo,PY,72.54,clear sky,-25.3333,-57.5333,Canarias Hotel
625,Inhambane,MZ,72.5,clear sky,-23.865,35.3833,Oceano
627,Ampanihy,MG,75.51,clear sky,-24.7,44.75,HOTEL SHARRON AMPANIHY OUEST
628,Haapiti,PF,78.53,light rain,-17.5667,-149.8667,Linareva Moorea Beach Resort
629,Abu Zabad,SD,84.58,clear sky,12.35,29.25,حامد محمد نور
632,Kununurra,AU,73.38,scattered clouds,-15.7667,128.7333,Hotel Kununurra
634,Sibolga,ID,76.37,overcast clouds,1.7427,98.7792,Hotel Syariah CN Darussalam
640,Dzaoudzi,YT,76.89,clear sky,-12.7887,45.2699,Le Rocher
641,Itabirito,BR,87.17,few clouds,-20.2533,-43.8014,Aredes Apart Hotel
644,Barcelona,ES,71.15,scattered clouds,41.3888,2.159,Axel Hotel Barcelona
645,Monrovia,LR,76.77,light rain,6.3005,-10.7969,Sunset Inn
647,Salinas,US,77.61,clear sky,36.6777,-121.6555,Laurel Inn & Conference Center
648,Lata,PT,70.92,clear sky,40.1629,-8.3327,Casa Maquia
652,Suez,EG,79.68,clear sky,29.9737,32.5263,Green House
655,Santa Rosalia,MX,87.91,clear sky,27.3167,-112.2833,Hotel Las Casitas Santa Rosalia
656,Garowe,SO,78.91,broken clouds,8.4054,48.4845,Curubo Hotel
659,Bartica,GY,84.52,scattered clouds,6.4,-58.6167,Sloth Island Nature Resort
660,Bairiki,KI,80.6,light rain,1.3292,172.9752,Tarawa Boutique Hotel
661,Jinji,CN,79.72,overcast clouds,23.2281,110.8261,
664,Jalingo,NG,78.06,overcast clouds,8.8833,11.3667,Debright Motel
667,Springdale,US,89.33,clear sky,36.1867,-94.1288,Springdale Inn
670,Carbonia,IT,76.01,overcast clouds,39.1672,8.5222,Lu 'Hotel
671,Zhaoqing,CN,76.06,broken clouds,23.0512,112.4597,七星岩旅游度假区
674,Papillion,US,85.68,clear sky,41.1544,-96.0422,lalithya constructions the lake shore
675,Tuni,IN,79.54,overcast clouds,17.35,82.55,Sai Krishna Lodge
677,Kankon,IN,76.66,clear sky,15.0167,74.0167,Palolem Beach Resort
679,Palauig,PH,80.51,overcast clouds,15.435,119.9045,Villa Raphael Resort
681,Kudahuvadhoo,MV,83.61,overcast clouds,2.6708,72.8944,Niyama Private Islands Maldives
683,Ratnapura,LK,74.19,broken clouds,6.6828,80.3992,Hotel Helenium
684,Xuddur,SO,84.15,overcast clouds,4.1213,43.8894,Banjanay Hotel
688,Nanakuli,US,82.04,moderate rain,21.3906,-158.1547,Camp Pālehua
691,Puerto Baquerizo Moreno,EC,70.79,broken clouds,-0.9,-89.6,Hotel los Algarrobos
694,Mehriz,IR,79.3,clear sky,31.5917,54.4318,Mehrgard dwelling/سرای مهرگرد
697,Nisia Floresta,BR,85.01,scattered clouds,-6.0911,-35.2086,Rancho Crepusculo
698,Fukue,JP,72.68,broken clouds,32.6881,128.8419,Goto Guesthouse Utojuku & SA Car Rental
699,Nzerekore,GN,73.15,moderate rain,7.7562,-8.8179,Hotel de la Gare & Germanho Club
704,Barranca De Upia,CO,89.37,light rain,4.5696,-72.9668,HOTEL GUAICARAMO
706,Elizabeth City,US,75.22,clear sky,36.2946,-76.2511,Hampton Inn Elizabeth City
707,Amberley,US,71.76,broken clouds,39.2048,-84.428,Days Inn & Suites by Wyndham Cincinnati
